- name: Home
  latitude: 53.478628
  longitude: -113.512009
  radius: 200
  icon: mdi:home


- name: Is at Nalco
  latitude: 53.339414
  longitude: -113.537553
  radius: 100
  icon: mdi:factory


- name: Is at the Health Center
  latitude: 53.604443
  longitude: -113.417651
  radius: 150
  icon: mdi:hospital-building
  

- name: Is at the Hospital
  latitude: 53.462656
  longitude: -113.429391
  radius: 200
  icon: mdi:hospital-building
  

- name: Is at Greenfield School
  latitude: 53.472253
  longitude: -113.526803
  radius: 100
  icon: mdi:school